[{"id":"1","description":"","site":"Customs House","latitude":"0.027321226","longitude":"51.5098352","":""},{"id":"2","description":"","site":"Freemasons Road","latitude":"0.025363339","longitude":"51.51395776","":""},{"id":"3","description":"","site":"Macdonald's Romford Road","latitude":"0.027057482","longitude":"51.54661153","":""},{"id":"4","description":"","site":"Stratford Station","latitude":"-0.0032835","longitude":"51.54148586","":""},{"id":"5","description":"","site":"West Ham Station","latitude":"0.004798428","longitude":"51.52823511","":""},{"id":"6","description":"","site":"East Ham Station","latitude":"0.050127673","longitude":"51.53317779","":""},{"id":"7","description":"","site":"Stratford High Street","latitude":"-0.002079797","longitude":"51.53796424","":""},{"id":"8","description":"","site":"Romford Road/Forest Gate","latitude":"0.024713277","longitude":"51.54642025","":""},{"id":"9","description":"","site":"Romford Road towards Stratford","latitude":"0.014248552","longitude":"51.54415437","":""},{"id":"10","description":"","site":"Car Wash Romford Road","latitude":"0.041327226","longitude":"51.54887288","":""},{"id":"11","description":"","site":"Nail Salon Green Street","latitude":"0.035150932","longitude":"51.53512753","":""},{"id":"","description":"","site":"","latitude":"","longitude":"","":""},{"id":"","description":"","site":"","latitude":"","longitude":"","":""},{"id":"","description":"","site":"","latitude":"","longitude":"","":""},{"id":"","description":"","site":"","latitude":"","longitude":"","":""},{"id":"","description":"","site":"","latitude":"","longitude":"","":""},{"id":"","description":"","site":"","latitude":"","longitude":"","":""}]